"stop_id","stop_name","stop_lat","stop_lon","zone_id","stop_url","location_type","parent_station"
"8","Donsak","9.2823238","99.7076122","","","1",""
"20","Koh Phangan","9.7318753","100.0135929","","","1",""
"24","Koh Tao","10.0956102","99.8403959","","","1",""
"23","Koh Samui","9.5595578","99.9972839","","","1",""
"557","Thong Sala Pier (Songserm)","9.710947","99.982474","","","2","Bangkok"
"581","Donsak Pier (Songserm)","9.337431","99.681091","","","2","Donsak"
"582","Nathon Pier (Songserm)","9.535567","99.934549","","","2","Koh Samui"
"650","Mae Haad Pier (Songserm)","10.084205","99.824123","","","2","Koh Tao"